,Unnamed: 0,name,lng,lat,geometry,x,y
0,0,阿克苏地区,80.260604,41.168779,POINT (8934569.568040576 5037268.492603978),8934569.568040576,5037268.492603978
1,1,和田地区,79.922211,37.114157,POINT (8896899.831592567 4455030.768475429),8896899.831592567,4455030.768475429
2,2,上海,121.480237,31.236305,POINT (13523118.124286192 3663476.0213721325),13523118.124286192,3663476.0213721325
3,3,东莞,113.758231,23.026997,POINT (12663508.348463587 2635283.79471456),12663508.348463587,2635283.79471456
4,4,东营,118.588614,37.454925,POINT (13201224.124360075 4502708.595383854),13201224.124360075,4502708.595383854
5,5,中山,113.399023,22.522262,POINT (12623521.496814718 2574345.64151821),12623521.496814718,2574345.64151821
6,6,临汾,111.526153,36.094052,POINT (12415034.56209272 4313570.511332772),12415034.56209272,4313570.511332772
7,7,临沂,118.36299,35.110531,POINT (13176107.775569333 4178912.0288659087),13176107.775569333,4178912.0288659087
8,8,丹东,124.362564,40.00569,POINT (13843977.298225896 4866769.16925071),13843977.298225896,4866769.16925071
9,9,丽水,119.929503,28.472979,POINT (13350491.205050373 3308737.556151745),13350491.205050373,3308737.556151745
10,10,乌鲁木齐,87.623314,43.832806,POINT (9754182.69609912 5439604.87732893),9754182.69609912,5439604.87732893
11,11,佛山,113.128432,23.027707,POINT (12593399.444481475 2635369.6746164383),12593399.444481475,2635369.6746164383
12,12,保定,115.471052,38.880055,POINT (12854178.710003614 4704505.01449473),12854178.710003614,4704505.01449473
13,13,兰州,103.840692,36.067312,POINT (11559492.957061157 4309887.3566414155),11559492.957061157,4309887.3566414155
14,14,包头,109.846755,40.663636,POINT (12228084.831893478 4962853.934626522),12228084.831893478,4962853.934626522
15,15,北京,116.413554,39.911013,POINT (12959097.552715257 4853019.344863748),12959097.552715257,4853019.344863748
16,16,北海,109.126614,21.486955,POINT (12147919.10247412 2450038.3927979986),12147919.10247412,2450038.3927979986
17,17,南京,118.802891,32.064735,POINT (13225077.330888784 3771811.104676621),13225077.330888784,3771811.104676621
18,18,南宁,108.373351,22.823037,POINT (12064066.248880705 2610631.938458608),12064066.248880705,2610631.938458608
19,19,南昌,115.864528,28.687675,POINT (12897980.257962989 3335953.8011265416),12897980.257962989,3335953.8011265416
20,20,南通,120.900301,31.985237,POINT (13458559.944073504 3761372.9099523616),13458559.944073504,3761372.9099523616
21,21,厦门,118.095915,24.485821,POINT (13146377.12256572 2812720.2518122075),13146377.12256572,2812720.2518122075
22,22,台州,121.426996,28.662297,POINT (13517191.363276867 3332733.8232279033),13517191.363276867,3332733.8232279033
23,23,合肥,117.235447,31.82687,POINT (13050590.26296181 3740606.018005195),13050590.26296181,3740606.018005195
24,24,呼和浩特,111.758518,40.847461,POINT (12440901.315570898 4989868.164926695),12440901.315570898,4989868.164926695
25,25,咸阳,108.715712,34.335599,POINT (12102177.70106818 4073954.283557397),12102177.70106818,4073954.283557397
26,26,哈尔滨,126.542417,45.807782,POINT (14086637.424190085 5749599.475366475),14086637.424190085,5749599.475366475
27,27,唐山,118.187036,39.636673,POINT (13156520.665886294 4813284.208958741),13156520.665886294,4813284.208958741
28,28,嘉兴,120.762045,30.750912,POINT (13443169.35655439 3600442.400561465),13443169.35655439,3600442.400561465
29,29,大同,113.306446,40.082539,POINT (12613215.872315548 4877943.881351884),12613215.872315548,4877943.881351884
30,30,大连,121.621391,38.919345,POINT (13538831.315689625 4710125.011947077),13538831.315689625,4710125.011947077
31,31,天津,117.205914,39.090908,POINT (13047302.664440215 4734701.741654188),13047302.664440215,4734701.741654188
32,32,太原,112.55706,37.876885,POINT (12529794.604387943 4562048.361622692),12529794.604387943,4562048.361622692
33,33,威海,122.128245,37.519322,POINT (13595254.04487616 4511742.913245856),13595254.04487616,4511742.913245856
34,34,宁波,121.556686,29.880177,POINT (13531628.388037845 3488156.9937906587),13531628.388037845,3488156.9937906587
35,35,宝鸡,107.243899,34.367747,POINT (11938336.227365261 4078289.002038199),11938336.227365261,4078289.002038199
36,36,宿迁,118.282062,33.967686,POINT (13167098.911818415 4024463.870299602),13167098.911818415,4024463.870299602
37,37,常州,119.980142,31.816791,POINT (13356128.312744655 3739285.552067615),13356128.312744655,3739285.552067615
38,38,广州,113.270793,23.135308,POINT (12609246.998510296 2648390.0734981587),12609246.998510296,2648390.0734981587
39,39,廊坊,116.69034,39.54352,POINT (12989909.229293965 4799827.899291987),12989909.229293965,4799827.899291987
40,40,延安,109.496361,36.591003,POINT (12189079.15023646 4382250.180470861),12189079.15023646,4382250.180470861
41,41,张家口,114.894165,40.830172,POINT (12789959.942918355 4987324.252317771),12789959.942918355,4987324.252317771
42,42,徐州,117.29235,34.210143,POINT (13056924.675946422 4057054.1208230755),13056924.675946422,4057054.1208230755
43,43,德州,116.365825,37.441313,POINT (12953784.384739183 4500799.95095218),12953784.384739183,4500799.95095218
44,44,惠州,114.423348,23.116409,POINT (12737548.834221538 2646102.4205567203),12737548.834221538,2646102.4205567203
45,45,成都,104.071216,30.576279,POINT (11585154.771356786 3577842.3065477177),11585154.771356786,3577842.3065477177
46,46,扬州,119.419107,32.39986,POINT (13293674.182227451 3815913.674652819),13293674.182227451,3815913.674652819
47,47,承德,117.969798,40.957855,POINT (13132337.842345344 5006127.272001079),13132337.842345344,5006127.272001079
48,48,拉萨,91.121025,29.650088,POINT (10143546.10356115 3458650.7490879116),10143546.10356115,3458650.7490879116
49,49,无锡,120.318954,31.496704,POINT (13393844.692059306 3697425.016835939),13393844.692059306,3697425.016835939
50,50,日照,119.533606,35.422798,POINT (13306420.15260379 4221487.18013393),13306420.15260379,4221487.18013393
51,51,昆明,102.839667,24.885953,POINT (11448059.363789821 2861743.007884044),11448059.363789821,2861743.007884044
52,52,杭州,120.161693,30.280059,POINT (13376338.477617666 3539599.8519300465),13376338.477617666,3539599.8519300465
53,53,枣庄,117.328513,34.816569,POINT (13060950.322691979 4138981.459707837),13060950.322691979,4138981.459707837
54,54,柳州,109.42198,24.331519,POINT (12180799.095191766 2793857.492478066),12180799.095191766,2793857.492478066
55,55,株洲,113.140431,27.833737,POINT (12594735.167051505 3228027.9547103117),12594735.167051505,3228027.9547103117
56,56,武汉,114.311831,30.598428,POINT (12725134.818566745 3580706.4558545137),12725134.818566745,3580706.4558545137
57,57,汕头,116.688739,23.359289,POINT (12989731.006789202 2675526.7801641277),12989731.006789202,2675526.7801641277
58,58,江门,113.088165,22.584459,POINT (12588916.942545703 2581842.737780342),12588916.942545703,2581842.737780342
59,59,沈阳,123.438973,41.811339,POINT (13741163.618404647 5132760.701225166),13741163.618404647,5132760.701225166
60,60,沧州,116.845272,38.31022,POINT (13007156.180641545 4623342.6626814315),13007156.180641545,4623342.6626814315
61,61,河源,114.707097,23.749829,POINT (12769135.62841464 2722953.179958813),12769135.62841464,2722953.179958813
62,62,泉州,118.682316,24.880242,POINT (13211654.983286384 2861042.2055137884),13211654.983286384,2861042.2055137884
63,63,泰安,117.094893,36.205905,POINT (13034943.863252854 4328990.695766239),13034943.863252854,4328990.695766239
64,64,泰州,119.932115,32.4612,POINT (13350781.971560325 3824003.717330201),13350781.971560325,3824003.717330201
65,65,济南,117.001319,36.671627,POINT (13024527.253221363 4393434.129847852),13024527.253221363,4393434.129847852
66,66,济宁,116.593852,35.420269,POINT (12979168.2342663 4221141.710102814),12979168.2342663,4221141.710102814
67,67,海口,110.206424,20.050057,POINT (12268123.001827603 2278961.809580913),12268123.001827603,2278961.809580913
68,68,淄博,118.061254,36.819182,POINT (13142518.677695332 4413932.969448443),13142518.677695332,4413932.969448443
69,69,淮安,119.022429,33.616272,POINT (13249516.189258559 3977392.3788315216),13249516.189258559,3977392.3788315216
70,70,深圳,114.066112,22.548515,POINT (12697781.504608514 2577509.711019977),12697781.504608514,2577509.711019977
71,71,清远,113.062619,23.688238,POINT (12586073.174833898 2715464.3084007907),12586073.174833898,2715464.3084007907
72,72,温州,120.705869,28.001095,POINT (13436915.872839585 3249111.844800277),13436915.872839585,3249111.844800277
73,73,渭南,109.516739,34.505687,POINT (12191347.618819844 4096907.242633041),12191347.618819844,4096907.242633041
74,74,湖州,120.094566,30.899015,POINT (13368865.934159186 3619641.2516237414),13368865.934159186,3619641.2516237414
75,75,湘潭,112.950575,27.83585,POINT (12573600.493807456 3228293.948970339),12573600.493807456,3228293.948970339
76,76,滨州,117.9792,37.388387,POINT (13133384.468197782 4493382.08175046),13133384.468197782,4493382.08175046
77,77,潍坊,119.168138,36.713212,POINT (13265736.440942556 4399207.272046076),13265736.440942556,4399207.272046076
78,78,烟台,121.454425,37.469868,POINT (13520244.745589834 4504804.269711559),13520244.745589834,4504804.269711559
79,79,玉溪,102.5537,24.357512,POINT (11416225.66296614 2797033.412425835),11416225.66296614,2797033.412425835
80,80,珠海,113.583235,22.276392,POINT (12644027.882852728 2544741.903213094),12644027.882852728,2544741.903213094
81,81,盐城,120.168187,33.355301,POINT (13377061.386390878 3942559.747367738),13377061.386390878,3942559.747367738
82,82,盘锦,122.077269,41.125939,POINT (13589579.422513481 5030935.422120065),13589579.422513481,5030935.422120065
83,83,石家庄,114.520828,38.048684,POINT (12748400.258184066 4586305.513926091),12748400.258184066,4586305.513926091
84,84,福州,119.302938,26.080447,POINT (13280742.308301488 3009048.0653007966),13280742.308301488,3009048.0653007966
85,85,秦皇岛,119.606184,39.941259,POINT (13314499.498606583 4857409.865516493),13314499.498606583,4857409.865516493
86,86,绍兴,120.586673,30.036519,POINT (13423647.034814991 3508244.884683653),13423647.034814991,3508244.884683653
87,87,聊城,115.992077,36.462681,POINT (12912178.947694179 4364473.755506619),12912178.947694179,4364473.755506619
88,88,肇庆,112.47177,23.052984,POINT (12520300.165018182 2638427.414928634),12520300.165018182,2638427.414928634
89,89,舟山,122.214339,29.991092,POINT (13604837.985116513 3502404.854546394),13604837.985116513,3502404.854546394
90,90,苏州,120.589613,31.304566,POINT (13423974.314117923 3672366.3248660835),13423974.314117923,3672366.3248660835
91,91,莱芜,117.683221,36.219357,POINT (13100436.236632278 4330846.687271877),13100436.236632278,4330846.687271877
92,92,菏泽,115.487696,35.239435,POINT (12856031.511608375 4196467.197675659),12856031.511608375,4196467.197675659
93,93,营口,122.241475,40.672565,POINT (13607858.75081868 4964164.383283532),13607858.75081868,4964164.383283532
94,94,葫芦岛,120.843388,40.717364,POINT (13452224.417893985 4970741.878861216),13452224.417893985,4970741.878861216
95,95,衡水,115.676942,37.745166,POINT (12877098.27996304 4543488.600371268),12877098.27996304,4543488.600371268
96,96,衢州,118.880768,28.941661,POINT (13233746.55887329 3368222.880783708),13233746.55887329,3368222.880783708
97,97,西宁,101.784269,36.623477,POINT (11330572.99584558 4386753.481240206),11330572.99584558,4386753.481240206
98,98,西安,108.946306,34.347436,POINT (12127847.307728166 4075550.1479092403),12127847.307728166,4075550.1479092403
99,99,贵阳,106.636816,26.652747,POINT (11870756.056936007 3080153.661214059),11870756.056936007,3080153.661214059
100,100,连云港,119.229571,34.602342,POINT (13272575.131220456 4109971.4659111477),13272575.131220456,4109971.4659111477
101,101,邢台,114.510889,37.076646,POINT (12747293.853765072 4449795.642748598),12747293.853765072,4449795.642748598
102,102,邯郸,114.545808,36.631222,POINT (12751181.019064082 4387827.791818441),12751181.019064082,4387827.791818441
103,103,郑州,113.631349,34.753488,POINT (12649383.908832755 4130431.4049799745),12649383.908832755,4130431.4049799745
104,104,鄂尔多斯,109.787314,39.61463,POINT (12221467.890041234 4810098.377952681),12221467.890041234,4810098.377952681
105,105,重庆,106.557165,29.570997,POINT (11861889.348174833 3448523.845249154),11861889.348174833,3448523.845249154
106,106,金华,119.654027,29.084455,POINT (13319825.357004607 3386399.661685237),13319825.357004607,3386399.661685237
107,107,铜川,108.951558,34.902957,POINT (12128431.957693812 4150701.195565536),12128431.957693812,4150701.195565536
108,108,银川,106.238976,38.492392,POINT (11826468.71071881 4649219.719260768),11826468.71071881,4649219.719260768
109,109,镇江,119.431494,32.195688,POINT (13295053.096759908 3789025.2175786505),13295053.096759908,3789025.2175786505
110,110,长春,125.33017,43.82178,POINT (13951690.705434412 5437903.523131065),13951690.705434412,5437903.523131065
111,111,长沙,112.945333,28.233971,POINT (12573016.957036717 3278504.332923743),12573016.957036717,3278504.332923743
112,112,长治,113.123046,36.201585,POINT (12592799.877704063 4328394.726917781),12592799.877704063,4328394.726917781
113,113,阳泉,113.587087,37.86234,POINT (12644456.685531264 4559997.282360419),12644456.685531264,4559997.282360419
114,114,青岛,120.389445,36.072358,POINT (13401691.714284813 4310582.294376118),13401691.714284813,4310582.294376118
115,115,韶关,113.603757,24.816174,POINT (12646312.381442789 2853182.576697755),12646312.381442789,2853182.576697755
116,116,九江,116.007993,29.711328,POINT (12913950.708709646 3466497.4566904367),12913950.708709646,3466497.4566904367
117,117,大庆,125.109727,46.593216,POINT (13927151.102925472 5875927.501128671),13927151.102925472,5875927.501128671
118,118,宁德,119.554701,26.671748,POINT (13308768.437262075 3082520.5171683338),13308768.437262075,3082520.5171683338
119,119,忻州,112.740804,38.422382,POINT (12550248.89290426 4639267.263650445),12550248.89290426,4639267.263650445
120,120,石嘴山,106.39078,38.989783,POINT (11843367.454699194 4720208.180642836),11843367.454699194,4720208.180642836
121,121,池州,117.497839,30.67098,POINT (13079799.60679004 3590092.947905787),13079799.60679004,3590092.947905787
122,122,淮南,117.006189,32.631837,POINT (13025069.37914153 3846537.824347556),13025069.37914153,3846537.824347556
123,123,吐鲁番地区,89.196029,42.957303,POINT (9929256.529062063 5305475.18462208),9929256.529062063,5305475.18462208
124,124,宜昌,111.292971,30.697602,POINT (12389076.86059056 3593538.9645924415),12389076.86059056,3593538.9645924415
125,125,景德镇,117.184967,29.274337,POINT (13044970.855066568 3410609.540022885),13044970.855066568,3410609.540022885
126,126,安庆,117.070127,30.548594,POINT (13032186.924743868 3574263.201240145),13032186.924743868,3574263.201240145
127,127,怒江傈僳族自治州,98.863189,25.823736,POINT (11005399.857679166 2977266.2199128116),11005399.857679166,2977266.2199128116
128,128,白城,122.845302,45.6254,POINT (13675076.464985913 5720521.1813115645),13675076.464985913,5720521.1813115645
129,129,萍乡,113.86077,27.62897,POINT (12674922.93773004 3202275.4188050176),12674922.93773004,3202275.4188050176
130,130,抚州,116.364627,27.953603,POINT (12953651.023989212 3243125.4477772643),12953651.023989212,3243125.4477772643
131,131,朝阳,120.457301,41.579487,POINT (13409245.409652084 5098195.295950251),13409245.409652084,5098195.295950251
132,132,海东,102.003965,36.406412,POINT (11355029.442694899 4356688.102498229),11355029.442694899,4356688.102498229
133,133,湘西土家族苗族自治州,109.745507,28.317399,POINT (12216813.95608964 3289049.797731764),12216813.95608964,3289049.797731764
134,134,鹰潭,117.075765,28.265879,POINT (13032814.544032961 3282536.5922407066),13032814.544032961,3282536.5922407066
135,135,阿拉善盟,105.735357,38.857806,POINT (11770406.100084994 4701323.920615084),11770406.100084994,4701323.920615084
136,137,鹤岗,130.304284,47.356043,POINT (14505406.543062106 6000384.229061273),14505406.543062106,6000384.229061273
137,138,吴忠,106.205161,38.003863,POINT (11822704.442137638 4579971.53958477),11822704.442137638,4579971.53958477
138,139,石河子,86.085507,44.312423,POINT (9582994.803920789 5513918.345842236),9582994.803920789,5513918.345842236
139,140,开封,114.313904,34.802941,POINT (12725365.583871158 4137133.754601004),12725365.583871158,4137133.754601004
140,141,延边朝鲜族自治州,129.515602,42.897211,POINT (14417610.864424285 5296339.377087638),14417610.864424285,5296339.377087638
141,142,白银,104.144182,36.550821,POINT (11593277.309322007 4376680.602306612),11593277.309322007,4376680.602306612
142,143,吕梁,111.148086,37.525476,POINT (12372948.33616698 4512606.671835983),12372948.33616698,4512606.671835983
143,144,随州,113.389071,31.696341,POINT (12622413.645242343 3723516.3359055645),12622413.645242343,3723516.3359055645
144,145,雅安,103.04636,30.021277,POINT (11471068.323300354 3506285.0967606734),11471068.323300354,3506285.0967606734
145,146,平顶山,113.198935,33.772051,POINT (12601247.802540874 3998234.959272087),12601247.802540874,3998234.959272087
146,147,阜新,121.676518,42.027983,POINT (13544968.025258588 5165172.083837159),13544968.025258588,5165172.083837159
147,148,普洱,100.98114,22.788486,POINT (11241169.084524268 2606459.559505056),11241169.084524268,2606459.559505056
148,149,三亚,109.518646,18.258217,POINT (12191559.905088788 2067794.6429116603),12191559.905088788,2067794.6429116603
149,150,赣州,114.94126,25.837179,POINT (12795202.534337264 2978928.8008079366),12795202.534337264,2978928.8008079366
150,151,广元,105.849993,32.441808,POINT (11783167.321231572 3821445.5399097204),11783167.321231572,3821445.5399097204
151,152,锦州,121.133631,41.100869,POINT (13484534.120860297 5027231.222234196),13484534.120860297,5027231.222234196
152,153,南充,106.117231,30.843297,POINT (11812916.119312186 3612414.953999077),11812916.119312186,3612414.953999077
153,154,衡阳,112.578397,26.899517,POINT (12532169.828362996 3110923.325385132),12532169.828362996,3110923.325385132
154,155,齐齐哈尔,123.924531,47.360087,POINT (13795215.687715245 6001048.7793389745),13795215.687715245,6001048.7793389745
155,156,兴安盟,122.044544,46.088444,POINT (13585936.49217727 5794533.778812101),13585936.49217727,5794533.778812101
156,157,乌海,106.80185,39.660154,POINT (11889127.557779584 4816678.988240999),11889127.557779584,4816678.988240999
157,158,楚雄彝族自治州,101.534082,25.051226,POINT (11302722.306402484 2882037.897020634),11302722.306402484,2882037.897020634
158,159,伊春,128.84704,47.733329,POINT (14343186.883020552 6062604.392219943),14343186.883020552,6062604.392219943
159,160,陇南,104.928233,33.406825,POINT (11680557.467397965 3949428.5155103453),11680557.467397965,3949428.5155103453
160,161,荆门,112.205843,31.041792,POINT (12490697.30679 3638177.8203136204),12490697.30679,3638177.8203136204
161,162,辽源,125.150107,42.8943,POINT (13931646.183963705 5295897.042948394),13931646.183963705,5295897.042948394
162,163,怀化,110.008116,27.575595,POINT (12246047.456247373 3195570.6366946422),12246047.456247373,3195570.6366946422
163,164,牡丹江,129.638976,44.558647,POINT (14431344.795281416 5552305.0543414485),14431344.795281416,5552305.0543414485
164,165,黄南藏族自治州,102.021495,35.526125,POINT (11356980.873368505 4235611.290538489),11356980.873368505,4235611.290538489
165,166,湛江,110.365494,21.277163,POINT (12285830.593228089 2424958.165708485),12285830.593228089,2424958.165708485
166,167,天水,105.731276,34.587162,POINT (11769951.805243066 4107918.6795407394),11769951.805243066,4107918.6795407394
167,168,黔东南苗族侗族自治州,107.990602,26.589858,POINT (12021458.82509907 3072322.712316029),12021458.82509907,3072322.712316029
168,169,云浮,112.051045,22.921154,POINT (12473465.272254182 2622486.3284141948),12473465.272254182,2622486.3284141948
169,170,安康,109.03592,32.690575,POINT (12137823.092576114 3854304.6235520225),12137823.092576114,3854304.6235520225
170,171,日喀则地区,88.956063,29.26816,POINT (9902543.636134364 3409821.2689269464),9902543.636134364,3409821.2689269464
171,172,海北藏族自治州,100.907395,36.960702,POINT (11232959.828675719 4433630.56747613),11232959.828675719,4433630.56747613
172,173,海西蒙古族藏族自治州,97.377823,37.382839,POINT (10840049.670917524 4492604.802488178),10840049.670917524,4492604.802488178
173,174,吉安,115.00027,27.119751,POINT (12801771.497488974 3138441.0370415086),12801771.497488974,3138441.0370415086
174,175,黄石,115.045433,30.205336,POINT (12806799.019651672 3529971.272075728),12806799.019651672,3529971.272075728
175,176,宿州,116.970454,33.652034,POINT (13021091.377138032 3982173.8461686466),13021091.377138032,3982173.8461686466
176,177,茂名,110.931773,21.669051,POINT (12348868.483155014 2471836.928468683),12348868.483155014,2471836.928468683
177,178,阳江,111.989051,21.864421,POINT (12466564.131741945 2495255.118386238),12466564.131741945,2495255.118386238
178,179,信阳,114.099264,32.153186,POINT (12701471.968367292 3783435.5095613054),12701471.968367292,3783435.5095613054
179,180,三门峡,111.206832,34.778442,POINT (12379487.910973122 4133812.910664874),12379487.910973122,4133812.910664874
180,181,咸宁,114.328967,29.847123,POINT (12727042.38936098 3483914.0278059584),12727042.38936098,3483914.0278059584
181,182,许昌,113.858804,34.041737,POINT (12674704.08361114 4034407.6632661317),12674704.08361114,4034407.6632661317
182,183,保山,99.168373,25.117882,POINT (11039372.78515742 2890230.7322290014),11039372.78515742,2890230.7322290014
183,184,鹤壁,114.304044,35.752656,POINT (12724267.973691938 4266640.37583279),12724267.973691938,4266640.37583279
184,185,运城,111.013379,35.032587,POINT (12357952.82152069 4168310.469470657),12357952.82152069,4168310.469470657
185,186,达州,107.474504,31.214347,POINT (11964007.058539642 3660617.5804931694),11964007.058539642,3660617.5804931694
186,187,常德,111.704994,29.037723,POINT (12434943.051145678 3380448.2042267206),12434943.051145678,3380448.2042267206
187,188,酒泉,98.500427,39.738615,POINT (10965017.376560016 4828030.908367638),10965017.376560016,4828030.908367638
188,189,马鞍山,118.512691,31.67633,POINT (13192772.414660577 3720898.4970911494),13192772.414660577,3720898.4970911494
189,190,南阳,112.535009,32.996701,POINT (12527339.898296459 3894866.0845072516),12527339.898296459,3894866.0845072516
190,191,邵阳,111.474133,27.245167,POINT (12409243.722181652 3154135.6591411587),12409243.722181652,3154135.6591411587
191,192,黔南布依族苗族自治州,107.528663,26.260586,POINT (11970036.010841517 3031391.5965096895),11970036.010841517,3031391.5965096895
192,193,孝感,113.922962,30.930712,POINT (12681846.119501455 3623754.0430731094),12681846.119501455,3623754.0430731094
193,194,安顺,105.952622,26.259904,POINT (11794591.929252196 3031306.9394724793),11794591.929252196,3031306.9394724793
194,195,辽阳,123.243726,41.274452,POINT (13719428.82178573 5052907.943460098),13719428.82178573,5052907.943460098
195,196,黔西南布依族苗族自治州,104.910858,25.095974,POINT (11678623.291245433 2887537.479556982),11678623.291245433,2887537.479556982
196,197,克拉玛依,84.89587,45.585765,POINT (9450565.01885195 5714214.451937179),9450565.01885195,5714214.451937179
197,198,庆阳,107.649305,35.716096,POINT (11983465.816849798 4261626.609772592),11983465.816849798,4261626.609772592
198,199,呼伦贝尔,119.77221,49.217977,POINT (13332981.428385027 6311928.791449962),13332981.428385027,6311928.791449962
199,200,六盘水,104.836786,26.599086,POINT (11670377.633923393 3073471.514833766),11670377.633923393,3073471.514833766
200,201,新余,114.923664,27.823541,POINT (12793243.756577266 3226744.507629155),12793243.756577266,3226744.507629155
201,202,七台河,131.009618,45.776512,POINT (14583923.964781286 5744607.157071278),14583923.964781286,5744607.157071278
202,203,商丘,115.662798,34.420378,POINT (12875523.777085261 4085389.165676218),12875523.777085261,4085389.165676218
203,204,漯河,114.02323,33.587703,POINT (12693007.902204314 3973574.0587569303),12693007.902204314,3973574.0587569303
204,205,乌兰察布,113.140223,40.999972,POINT (12594712.01259742 5012337.533854785),12594712.01259742,5012337.533854785
205,206,潜江,112.905773,30.407633,POINT (12568613.157980936 3556055.6180892307),12568613.157980936,3556055.6180892307
206,207,定西,104.631662,35.587354,POINT (11647543.334693912 4243989.466537988),11647543.334693912,4243989.466537988
207,208,鸡西,130.976161,45.300906,POINT (14580199.548577815 5669018.026698145),14580199.548577815,5669018.026698145
208,209,汕尾,115.381693,22.791322,POINT (12844231.311625818 2606801.99503639),12844231.311625818,2606801.99503639
209,210,四平,124.356844,43.172447,POINT (13843340.550738556 5338256.982370817),13843340.550738556,5338256.982370817
210,211,西双版纳傣族自治州,100.803836,22.013792,POINT (11221431.69352866 2513181.209643169),11221431.69352866,2513181.209643169
211,212,遂宁,105.599152,30.539156,POINT (11755243.828841496 3573043.293843024),11755243.828841496,3573043.293843024
212,213,商洛,109.94688,33.876525,POINT (12239230.695909154 4012234.376002603),12239230.695909154,4012234.376002603
213,214,海南藏族自治州,100.626831,36.292132,POINT (11201727.587060796 4340893.096748421),11201727.587060796,4340893.096748421
214,215,文山壮族苗族自治州,104.221606,23.404187,POINT (11601896.109577185 2680971.9541973164),11601896.109577185,2680971.9541973164
215,216,六安,116.529651,31.741226,POINT (12972021.411637882 3729390.245714894),12972021.411637882,3729390.245714894
216,217,张家界,110.484925,29.122477,POINT (12299125.591333022 3391243.867322745),12299125.591333022,3391243.867322745
217,218,潮州,116.62943,23.662923,POINT (12983128.759109745 2712387.2731594346),12983128.759109745,2712387.2731594346
218,219,蚌埠,117.395835,32.921498,POINT (13068444.573451165 3884888.7654673196),13068444.573451165,3884888.7654673196
219,220,桂林,110.296442,25.279893,POINT (12278143.759749832 2910162.5256745336),12278143.759749832,2910162.5256745336
220,221,甘南藏族自治州,102.917605,34.98901,POINT (11456735.382263266 4162387.747238971),11456735.382263266,4162387.747238971
221,222,驻马店,114.029465,33.017546,POINT (12693701.979229411 3897633.133076992),12693701.979229411,3897633.133076992
222,223,林芝地区,94.368109,29.654792,POINT (10505009.841004137 3459253.3052277),10505009.841004137,3459253.3052277
223,224,百色,106.624969,23.907845,POINT (11869437.25492858 2742182.6354678664),11869437.25492858,2742182.6354678664
224,225,鞍山,123.000974,41.114122,POINT (13692405.79275668 5029189.233509273),13692405.79275668,5029189.233509273
225,226,郴州,113.021311,25.776711,POINT (12581474.789308209 2971451.824714259),12581474.789308209,2971451.824714259
226,227,巴中,106.753912,31.872851,POINT (11883791.124029936 3746631.8928388692),11883791.124029936,3746631.8928388692
227,228,恩施土家族苗族自治州,109.494763,30.277908,POINT (12188901.261690173 3539322.578173914),12188901.261690173,3539322.578173914
228,229,十堰,110.80454,32.635042,POINT (12334704.970382914 3846961.482997458),12334704.970382914,3846961.482997458
229,230,临沧,100.10566,23.914336,POINT (11143711.096724574 2742973.0469393795),11143711.096724574,2742973.0469393795
230,231,泸州,105.449092,28.877577,POINT (11738539.226053057 3360073.538435645),11738539.226053057,3360073.538435645
231,232,平凉,106.671741,35.549266,POINT (11874643.890151963 4238777.001464316),11874643.890151963,4238777.001464316
232,233,宣城,118.765196,30.946576,POINT (13220881.14268333 3625812.961856892),13220881.14268333,3625812.961856892
233,234,绵阳,104.686164,31.473364,POINT (11653610.469581129 3694378.2670766055),11653610.469581129,3694378.2670766055
234,235,佳木斯,130.32696,46.806581,POINT (14507930.823835336 5910560.116360812),14507930.823835336,5910560.116360812
235,236,遵义,106.933658,27.731749,POINT (11903800.357222065 3215195.378860848),11903800.357222065,3215195.378860848
236,237,钦州,108.66089,21.985392,POINT (12096074.94394391 2509771.460357433),12096074.94394391,2509771.460357433
237,238,玉树藏族自治州,97.01308,33.011061,POINT (10799446.665887112 3896772.2181918756),10799446.665887112,3896772.2181918756
238,239,本溪,123.773468,41.299847,POINT (13778399.431477541 5056670.137825985),13778399.431477541,5056670.137825985
239,240,朔州,112.438184,39.33789,POINT (12516561.388600402 4770187.634889228),12516561.388600402,4770187.634889228
240,241,毕节,105.333323,27.408562,POINT (11725651.87992341 3174609.561596926),11725651.87992341,3174609.561596926
241,242,张掖,100.456221,38.932187,POINT (11182735.368736556 4711962.591860353),11182735.368736556,4711962.591860353
242,243,南平,118.1843,26.647662,POINT (13156216.095759483 3079520.315989357),13156216.095759483,3079520.315989357
243,244,濮阳,115.035917,35.767586,POINT (12805739.703377284 4268688.508777953),12805739.703377284,4268688.508777953
244,245,宜宾,104.648103,28.75761,POINT (11649373.538442045 3344831.2437158064),11649373.538442045,3344831.2437158064
245,246,铜仁,109.168558,27.674903,POINT (12152588.287195953 3208047.98038439),12152588.287195953,3208047.98038439
246,247,松原,124.831633,45.147201,POINT (13896193.820452804 5644725.1160058305),13896193.820452804,5644725.1160058305
247,248,漳州,117.653827,24.519197,POINT (13097164.111519901 2816803.3635544367),13097164.111519901,2816803.3635544367
248,249,梧州,111.285647,23.482873,POINT (12388261.556639992 2690519.3532716436),12388261.556639992,2690519.3532716436
249,250,洛阳,112.460033,34.624376,POINT (12518993.60815474 4112951.7841635523),12518993.60815474,4112951.7841635523
250,251,龙岩,117.023668,25.081257,POINT (13027015.132521102 2885728.52090621),13027015.132521102,2885728.52090621
251,252,莆田,119.014232,25.45996,POINT (13248603.703392526 2932346.9648509915),13248603.703392526,2932346.9648509915
252,253,济源,112.609314,35.072867,POINT (12535611.493059853 4173787.8926211316),12535611.493059853,4173787.8926211316
253,254,哈密地区,93.522785,42.824642,POINT (10410908.803768804 5285318.546306768),10410908.803768804,5285318.546306768
254,255,昭通,103.723311,27.344057,POINT (11546426.16391235 3166523.278800957),11546426.16391235,3166523.278800957
255,256,大理白族自治州,100.274223,25.612206,POINT (11162475.444051161 2951129.7331165504),11162475.444051161,2951129.7331165504
256,257,昌吉回族自治州,87.314822,44.016923,POINT (9719841.52374532 5468061.430144523),9719841.52374532,5468061.430144523
257,258,迪庆藏族自治州,99.70948,27.825264,POINT (11099608.540862095 3226961.3861120516),11099608.540862095,3226961.3861120516
258,259,黑河,127.535014,50.251193,POINT (14197132.816793017 6489892.226938773),14197132.816793017,6489892.226938773
259,260,吉林,126.556073,43.843512,POINT (14088157.603156358 5441257.15510442),14088157.603156358,5441257.15510442
260,261,广安,106.639772,30.461708,POINT (11871085.117350793 3563037.235875672),11871085.117350793,3563037.235875672
261,262,黄山,118.174807,30.133213,POINT (13155159.33983338 3520684.65097752),13155159.33983338,3520684.65097752
262,263,德阳,104.404319,31.133105,POINT (11622235.627698496 3650047.452869324),11622235.627698496,3650047.452869324
263,264,河池,108.091898,24.698828,POINT (12032735.044238467 2838797.52250109),12032735.044238467,2838797.52250109
264,265,益阳,112.361677,28.559818,POINT (12508044.66831828 3319739.137069245),12508044.66831828,3319739.137069245
265,266,通化,125.946506,41.733906,POINT (14020300.915111974 5121202.819040947),14020300.915111974,5121202.819040947
266,267,永州,111.618703,26.426612,POINT (12425337.180965638 3052015.3310149815),12425337.180965638,3052015.3310149815
267,268,周口,114.703433,33.631958,POINT (12768727.753800372 3979489.3911749106),12768727.753800372,3979489.3911749106
268,269,梅州,116.129179,24.294311,POINT (12927441.072520917 2789312.416193199),12927441.072520917,2789312.416193199
269,270,锡林郭勒盟,116.054141,43.939525,POINT (12919087.880570771 5456088.302326913),12919087.880570771,5456088.302326913
270,271,固原,106.24917,36.021609,POINT (11827603.501607958 4303595.14463684),11827603.501607958,4303595.14463684
271,272,滁州,118.323252,32.308165,POINT (13171684.161644189 3803830.396384028),13171684.161644189,3803830.396384028
272,273,荆州,112.24722,30.340606,POINT (12495303.373360554 3547407.133521928),12495303.373360554,3547407.133521928
273,274,芜湖,118.439561,31.358798,POINT (13184631.620298864 3679434.085287631),13184631.620298864,3679434.085287631
274,275,襄阳,112.250093,32.229169,POINT (12495623.194257604 3793430.355076464),12495623.194257604,3793430.355076464
275,277,榆林,109.741195,38.290886,POINT (12216333.94644534 4620600.139404268),12216333.94644534,4620600.139404268
276,278,果洛藏族自治州,100.251341,34.477207,POINT (11159928.231462829 4093060.6788353054),11159928.231462829,4093060.6788353054
277,279,玉林,110.18743,22.660656,POINT (12266008.599419476 2591031.980812116),12266008.599419476,2591031.980812116
278,280,临夏回族自治州,103.217303,35.607475,POINT (11490097.61101503 4246744.090868775),11490097.61101503,4246744.090868775
279,281,鄂州,114.901557,30.396522,POINT (12790782.816594299 3554621.5571309477),12790782.816594299,3554621.5571309477
280,282,晋中,112.759375,37.692757,POINT (12552316.207167782 4536113.1415343825),12552316.207167782,4536113.1415343825
281,283,巴音郭楞蒙古自治州,86.151584,41.770226,POINT (9590350.461913934 5126622.314035301),9590350.461913934,5126622.314035301
282,284,澳门,113.549403,22.192961,POINT (12640261.72184021 2534708.3263529493),12640261.72184021,2534708.3263529493
283,285,内江,105.065028,29.585836,POINT (11695785.41714103 3450423.2429025946),11695785.41714103,3450423.2429025946
284,286,揭阳,116.37922,23.555773,POINT (12955275.50931836 2699369.7901316406),12955275.50931836,2699369.7901316406
285,287,通辽,122.251207,43.658363,POINT (13608942.11210308 5412724.390826109),13608942.11210308,5412724.390826109
286,288,阜阳,115.821389,32.895879,POINT (12893178.046449656 3881491.78305167),12893178.046449656,3881491.78305167
287,289,中卫,105.203332,37.506058,POINT (11711181.347995702 4509881.456724245),11711181.347995702,4509881.456724245
288,290,铜陵,117.818795,30.950899,POINT (13115528.265277086 3626374.0842695707),13115528.265277086,3626374.0842695707
289,291,红河哈尼族彝族自治州,103.38215,23.369914,POINT (11508448.295113826 2676815.200456435),11508448.295113826,2676815.200456435
290,292,曲靖,103.802685,25.496328,POINT (11555262.037174577 2936831.5617455123),11555262.037174577,2936831.5617455123
291,293,香港,114.171994,22.281089,POINT (12709568.234932685 2545306.9514580565),12709568.234932685,2545306.9514580565
292,294,汉中,107.030197,33.07382,POINT (11914547.029543756 3905106.4378652233),11914547.029543756,3905106.4378652233
293,295,乐山,103.77193,29.558141,POINT (11551838.40623523 3446878.4980063518),11551838.40623523,3446878.4980063518
294,296,新乡,113.933349,35.308973,POINT (12683002.395052325 4205949.017570199),12683002.395052325,4205949.017570199
295,297,晋城,112.857706,35.496081,POINT (12563262.364016974 4231502.60424001),12563262.364016974,4231502.60424001
296,298,巴彦淖尔,107.394129,40.749427,POINT (11955059.754467133 4975452.162624606),11955059.754467133,4975452.162624606
297,299,武威,102.644524,37.934078,POINT (11426336.144397948 4570117.42622879),11426336.144397948,4570117.42622879
298,300,岳阳,113.135679,29.363262,POINT (12594206.176831253 3421962.8937358274),12594206.176831253,3421962.8937358274
299,301,赤峰,118.895463,42.264586,POINT (13235382.3987905 5200695.912322709),13235382.3987905,5200695.912322709
300,302,白山,126.431052,41.94643,POINT (14074240.32909789 5152958.292525407),14074240.32909789,5152958.292525407
301,303,攀枝花,101.725262,26.588109,POINT (11324004.366652342 3072104.988079472),11324004.366652342,3072104.988079472
302,304,黄冈,114.878872,30.459422,POINT (12788257.533945652 3562742.012246643),12788257.533945652,3562742.012246643
303,305,绥化,126.975678,46.658789,POINT (14134867.81809067 5886556.510849173),14134867.81809067,5886556.510849173
304,306,双鸭山,131.165442,46.652966,POINT (14601270.213114662 5885612.114563163),14601270.213114662,5885612.114563163
305,307,凉山彝族自治州,102.273965,27.887685,POINT (11385085.705209084 3234820.803200121),11385085.705209084,3234820.803200121
306,308,伊犁哈萨克自治州,81.330697,43.922815,POINT (9053691.775902022 5453505.385871878),9053691.775902022,5453505.385871878
307,309,德宏傣族景颇族自治州,98.591419,24.438031,POINT (10975146.559666276 2806875.6632225215),10975146.559666276,2806875.6632225215
308,310,安阳,114.3996,36.103649,POINT (12734905.21895418 4314892.703043186),12734905.21895418,4314892.703043186
309,311,三明,117.645742,26.269683,POINT (13096264.093436837 3032520.859702378),13096264.093436837,3032520.859702378
310,312,宜春,114.422683,27.820089,POINT (12737474.80676016 3226310.0057835993),12737474.80676016,3226310.0057835993
311,313,上饶,117.950028,28.460864,POINT (13130137.05601236 3307203.4334952612),13130137.05601236,3307203.4334952612
312,314,自贡,104.784891,29.345379,POINT (11664600.708948674 3419678.915706377),11664600.708948674,3419678.915706377
313,315,娄底,112.001082,27.703196,POINT (12467903.416535677 3211604.8689462994),12467903.416535677,3211604.8689462994
314,316,丽江,100.23357,26.862521,POINT (11157949.972791942 3106306.0394807467),11157949.972791942,3106306.0394807467
315,317,防城港,108.361138,21.693439,POINT (12062706.703939646 2474758.4774459368),12062706.703939646,2474758.4774459368
316,318,淮北,116.804878,33.96064,POINT (13002659.541130444 4023518.163444349),13002659.541130444,4023518.163444349
317,319,儋州,109.587145,19.527081,POINT (12199185.178888638 2217090.5308924997),12199185.178888638,2217090.5308924997
318,320,怒江州,98.863189,25.823736,POINT (11005399.857679166 2977266.2199128116),11005399.857679166,2977266.2199128116
319,321,焦作,113.248557,35.221493,POINT (12606771.698313018 4194022.0450288835),12606771.698313018,4194022.0450288835
320,322,铁岭,123.848797,42.292573,POINT (13786785.017399509 5204906.713389325),13786785.017399509,5204906.713389325
321,323,抚顺,123.963595,41.886078,POINT (13799564.272303592 5143929.727098088),13799564.272303592,5143929.727098088
322,324,巢湖,117.88049,31.608733,POINT (13122396.121261576 3712059.6261479678),13122396.121261576,3712059.6261479678
323,325,西双版纳,100.803836,22.013792,POINT (11221431.69352866 2513181.209643169),11221431.69352866,2513181.209643169
324,326,德宏州,98.591419,24.438031,POINT (10975146.559666276 2806875.6632225215),10975146.559666276,2806875.6632225215
325,327,恩施,109.485727,30.30089,POINT (12187895.378771363 3542285.377824894),12187895.378771363,3542285.377824894
326,328,湘西州,109.745507,28.317399,POINT (12216813.95608964 3289049.797731764),12216813.95608964,3289049.797731764
327,329,西昌,102.269526,27.900601,POINT (11384591.557989452 3236447.6199599653),11384591.557989452,3236447.6199599653
328,330,阿坝州,102.231186,31.905609,POINT (11380323.568712438 3750926.709113836),11380323.568712438,3750926.709113836
329,331,黔南州,107.528663,26.260586,POINT (11970036.010841517 3031391.5965096895),11970036.010841517,3031391.5965096895
330,332,黔东南州,107.990602,26.589858,POINT (12021458.82509907 3072322.712316029),12021458.82509907,3072322.712316029
331,333,黔西南州,104.910858,25.095974,POINT (11678623.291245433 2887537.479556982),11678623.291245433,2887537.479556982
332,334,大理州,100.274223,25.612206,POINT (11162475.444051161 2951129.7331165504),11162475.444051161,2951129.7331165504
333,335,红河州,103.38215,23.369914,POINT (11508448.295113826 2676815.200456435),11508448.295113826,2676815.200456435
334,336,文山州,104.221606,23.404187,POINT (11601896.109577185 2680971.9541973164),11601896.109577185,2680971.9541973164
335,337,楚雄州,101.534082,25.051226,POINT (11302722.306402484 2882037.897020634),11302722.306402484,2882037.897020634
336,338,迪庆州,99.70948,27.825264,POINT (11099608.540862095 3226961.3861120516),11099608.540862095,3226961.3861120516
337,339,山南地区,91.779601,29.24309,POINT (10216858.448529823 3406622.477060644),10216858.448529823,3406622.477060644
338,340,那曲地区,92.0578,31.482375,POINT (10247827.41954902 3695554.452152277),10247827.41954902,3695554.452152277
339,341,博尔塔拉蒙古自治州,82.073064,44.912168,POINT (9136331.692323752 5607704.717540831),9136331.692323752,5607704.717540831
340,342,临夏州,103.217303,35.607475,POINT (11490097.61101503 4246744.090868775),11490097.61101503,4246744.090868775
341,343,甘南州,102.917605,34.98901,POINT (11456735.382263266 4162387.747238971),11456735.382263266,4162387.747238971
342,344,格尔木,94.909745,36.408588,POINT (10565304.484719442 4356989.079588959),10565304.484719442,4356989.079588959
343,345,奎屯,84.90832,44.432645,POINT (9451950.946512327 5532640.938538372),9451950.946512327,5532640.938538372
344,346,亳州,115.7786,33.8445,POINT (12888414.796758104 4007941.237877764),12888414.796758104,4007941.237877764
345,347,崇左,107.3647,22.3765,POINT (11951783.733172579 2556788.9931206075),11951783.733172579,2556788.9931206075
346,348,定安县,110.3588,19.6814,POINT (12285085.42055672 2235326.3314225306),12285085.42055672,2235326.3314225306
347,349,东方,108.6518,19.0953,POINT (12095063.0497726 2166159.1651851838),12095063.0497726,2166159.1651851838
348,350,贵港,109.5989,23.1115,POINT (12200493.73950291 2645508.2572616725),12200493.73950291,2645508.2572616725
349,351,贺州,111.5666,24.4035,POINT (12419537.101536835 2802653.993388305),12419537.101536835,2802653.993388305
350,352,嘉峪关,98.2891,39.7731,POINT (10941492.562529147 4833024.366148063),10941492.562529147,4833024.366148063
351,353,金昌,102.188,38.52,POINT (11375516.12518304 4653147.065207359),11375516.12518304,4653147.065207359
352,354,来宾,109.2214,23.7503,POINT (12158470.63172845 2723010.4626514604),12158470.63172845,2723010.4626514604
353,355,乐东黎族自治县,109.173,18.7502,POINT (12153082.768374056 2125547.9730891846),12153082.768374056,2125547.9730891846
354,356,陵水黎族自治县,110.0375,18.506,POINT (12249318.46816484 2096860.8640876827),12249318.46816484,2096860.8640876827
355,357,眉山,103.8485,30.0754,POINT (11560362.139645271 3513245.497020454),11560362.139645271,3513245.497020454
356,358,琼海,110.4921,19.2396,POINT (12299924.308679461 2183165.343669566),12299924.308679461,2183165.343669566
357,359,台湾,120.9605,23.6978,POINT (13465261.266099768 2716626.7235309104),13465261.266099768,2716626.7235309104
358,360,天门,113.3169,30.8657,POINT (12614379.606272303 3615319.9866971606),12614379.606272303,3615319.9866971606
359,361,屯昌县,110.1034,19.3517,POINT (12256654.422608117 2196386.9722741605),12256654.422608117,2196386.9722741605
360,362,万宁,110.3816,18.8078,POINT (12287623.504946807 2132320.4956653113),12287623.504946807,2132320.4956653113
361,363,文昌,113.8259,25.8228,POINT (12671041.227086078 2977150.4658991615),12671041.227086078,2977150.4658991615
362,364,五指山,109.5169,18.7751,POINT (12191365.541257864 2128475.3941144487),12191365.541257864,2128475.3941144487
363,365,仙桃,113.4234,30.3608,POINT (12626235.132041786 3550012.138565228),12626235.132041786,3550012.138565228
364,366,资阳,104.652,30.1246,POINT (11649807.350497665 3519576.087363566),11649807.350497665,3519576.087363566
365,367,安徽,117.17,31.52,POINT (13043304.736247865 3700466.7813451113),13043304.736247865,3700466.7813451113
366,368,福建,119.18,26.05,POINT (13267056.912742347 3005274.976597687),13267056.912742347,3005274.976597687
367,369,甘肃,103.51,36.04,POINT (11522680.492011748 4306126.7071378),11522680.492011748,4306126.7071378
368,370,广东,113.14,23.08,POINT (12594687.188350972 2641696.1555663375),12594687.188350972,2641696.1555663375
369,371,广西,108.19,22.48,POINT (12043655.708924267 2569253.3943522233),12043655.708924267,2569253.3943522233
370,372,贵州,106.42,26.35,POINT (11846620.210220175 3042494.9179087323),11846620.210220175,3042494.9179087323
371,373,海南,110.2,20.02,POINT (12267407.885418748 2275400.3521111393),12267407.885418748,2275400.3521111393
372,374,河北,114.3,38.02,POINT (12723817.797671169 4582251.52748982),12723817.797671169,4582251.52748982
373,375,河南,113.4,34.46,POINT (12623630.255957223 4090737.3044675705),12623630.255957223,4090737.3044675705
374,376,黑龙江,126.36,45.44,POINT (14066330.856638048 5691058.511864659),14066330.856638048,5691058.511864659
375,377,湖北,114.17,30.35,POINT (12709346.263868043 3548618.8828987507),12709346.263868043,3548618.8828987507
376,378,湖南,112.59,28.12,POINT (12533461.468414672 3264111.485587849),12533461.468414672,3264111.485587849
377,379,江苏,118.46,32.03,POINT (13186906.879371185 3767249.2378612314),13186906.879371185,3767249.2378612314
378,380,江西,115.55,28.4,POINT (12862967.16116276 3299498.8824963216),12862967.16116276,3299498.8824963216
379,381,辽宁,123.25,41.48,POINT (13720127.240270967 5083401.449349536),13720127.240270967,5083401.449349536
380,382,内蒙古,111.41,40.48,POINT (12402104.46927861 4935941.715784048),12402104.46927861,4935941.715784048
381,383,宁夏,106.16,38.27,POINT (11817677.142613921 4617638.286128266),11817677.142613921,4617638.286128266
382,384,青海,101.48,36.38,POINT (11296701.925701402 4353035.554224865),11296701.925701402,4353035.554224865
383,385,山东,117.0,36.4,POINT (13024380.422813008 4355801.264971882),13024380.422813008,4355801.264971882
384,386,山西,112.33,37.54,POINT (12504518.40080842 4514645.503284724),12504518.40080842,4514645.503284724
385,387,陕西,108.57,34.17,POINT (12085957.11542571 4051651.778525095),12085957.11542571,4051651.778525095
386,388,四川,104.04,30.4,POINT (11581679.822132183 3555070.4338373523),11581679.822132183,3555070.4338373523
387,389,西藏,91.08,29.39,POINT (10138979.221451357 3425378.561512719),10138979.221451357,3425378.561512719
388,390,新疆,87.36,43.45,POINT (9724870.715700379 5380719.203307415),9724870.715700379,5380719.203307415
389,391,云南,102.42,25.04,POINT (11401342.24704708 2880658.5233640596),11401342.24704708,2880658.5233640596
390,392,浙江,120.1,30.16,POINT (13369470.844272153 3524132.9756246265),13369470.844272153,3524132.9756246265
